{
"type": "FeatureCollection",
"name": "vn_cities",
"crs": { "type": "name", "properties": { "name": "urn:ogc:def:crs:OGC:1.3:CRS84" } },
"features": [
{ "type": "Feature", "properties": { "name": "Thành phố Tân Uyên", "ogc_fid": 1, "name_en": "Tan Uyen City", "level": "Thành phố trực thuộc tỉnh", "prov_name": "Tỉnh Bình Dương", "region": "Đông Nam Bộ", "latitude": 11.061137057423201, "longitude": 106.7988490734612, "code": "723", "prov_code": "74", "pop_2019": 370512 }, "geometry": { "type": "Point", "coordinates": [ 106.79884907, 11.06113706 ] } },
{ "type": "Feature", "properties": { "name": "Thành phố Bắc Ninh", "ogc_fid": 2, "name_en": "Bac Ninh City", "level": "Thành phố trực thuộc tỉnh", "prov_name": "Tỉnh Bắc Ninh", "region": "Đồng bằng sông Hồng", "latitude": 21.187765815723829, "longitude": 106.07262189722935, "code": "256", "prov_code": "27", "pop_2019": 247702 }, "geometry": { "type": "Point", "coordinates": [ 106.0726219, 21.18776582 ] } },
{ "type": "Feature", "properties": { "name": "Thành phố Quy Nhơn", "ogc_fid": 3, "name_en": "Quy Nhon City", "level": "Thành phố trực thuộc tỉnh", "prov_name": "Tỉnh Bình Định", "region": "Bắc Trung Bộ và duyên hải miền Trung", "latitude": 13.77031345896231, "longitude": 109.23224492106728, "code": "540", "prov_code": "52", "pop_2019": 290053 }, "geometry": { "type": "Point", "coordinates": [ 109.23224492, 13.77031346 ] } },
{ "type": "Feature", "properties": { "name": "Thành phố Tuy Hoà", "ogc_fid": 4, "name_en": "Tuy Hoa City", "level": "Thành phố trực thuộc tỉnh", "prov_name": "Tỉnh Phú Yên", "region": "Bắc Trung Bộ và duyên hải miền Trung", "latitude": 13.084599464518426, "longitude": 109.29964283527909, "code": "555", "prov_code": "54", "pop_2019": 155921 }, "geometry": { "type": "Point", "coordinates": [ 109.29964284, 13.08459946 ] } },
{ "type": "Feature", "properties": { "name": "Thành phố Sông Công", "ogc_fid": 5, "name_en": "Song Cong City", "level": "Thành phố trực thuộc tỉnh", "prov_name": "Tỉnh Thái Nguyên", "region": "Trung du và Miền núi phía Bắc", "latitude": 21.466572532185797, "longitude": 105.84454019962702, "code": "165", "prov_code": "19", "pop_2019": 69382 }, "geometry": { "type": "Point", "coordinates": [ 105.8445402, 21.46657253 ] } },
{ "type": "Feature", "properties": { "name": "Thành phố Sơn La", "ogc_fid": 6, "name_en": "Son La City", "level": "Thành phố trực thuộc tỉnh", "prov_name": "Tỉnh Sơn La", "region": "Trung du và Miền núi phía Bắc", "latitude": 21.342801848945658, "longitude": 103.90832503727758, "code": "116", "prov_code": "14", "pop_2019": 106052 }, "geometry": { "type": "Point", "coordinates": [ 103.90832504, 21.34280185 ] } },
{ "type": "Feature", "properties": { "name": "Thành phố Hưng Yên", "ogc_fid": 7, "name_en": "Hung Yen City", "level": "Thành phố trực thuộc tỉnh", "prov_name": "Tỉnh Hưng Yên", "region": "Đồng bằng sông Hồng", "latitude": 20.65972233988747, "longitude": 106.06349439861114, "code": "323", "prov_code": "33", "pop_2019": 116356 }, "geometry": { "type": "Point", "coordinates": [ 106.0634944, 20.65972234 ] } },
{ "type": "Feature", "properties": { "name": "Thành phố Bắc Kạn", "ogc_fid": 8, "name_en": "Bac Kan City", "level": "Thành phố trực thuộc tỉnh", "prov_name": "Tỉnh Bắc Kạn", "region": "Trung du và Miền núi phía Bắc", "latitude": 22.140645015876416, "longitude": 105.83150918309165, "code": "058", "prov_code": "06", "pop_2019": 45036 }, "geometry": { "type": "Point", "coordinates": [ 105.83150918, 22.14064502 ] } },
{ "type": "Feature", "properties": { "name": "Thành phố Tam Điệp", "ogc_fid": 9, "name_en": "Tam Diep City", "level": "Thành phố trực thuộc tỉnh", "prov_name": "Tỉnh Ninh Bình", "region": "Đồng bằng sông Hồng", "latitude": 20.156481018269563, "longitude": 105.9172225224108, "code": "370", "prov_code": "37", "pop_2019": 62866 }, "geometry": { "type": "Point", "coordinates": [ 105.91722252, 20.15648102 ] } },
{ "type": "Feature", "properties": { "name": "Thành phố Buôn Ma Thuột", "ogc_fid": 10, "name_en": "Buon Ma Thuot City", "level": "Thành phố trực thuộc tỉnh", "prov_name": "Tỉnh Đắk Lắk", "region": "Tây Nguyên", "latitude": 12.684522446295732, "longitude": 108.05071140672666, "code": "643", "prov_code": "66", "pop_2019": 375590 }, "geometry": { "type": "Point", "coordinates": [ 108.05071141, 12.68452245 ] } },
{ "type": "Feature", "properties": { "name": "Thành phố Cao Bằng", "ogc_fid": 11, "name_en": "Cao Bang City", "level": "Thành phố trực thuộc tỉnh", "prov_name": "Tỉnh Cao Bằng", "region": "Trung du và Miền núi phía Bắc", "latitude": 22.66387185322116, "longitude": 106.25821951795594, "code": "040", "prov_code": "04", "pop_2019": 73549 }, "geometry": { "type": "Point", "coordinates": [ 106.25821952, 22.66387185 ] } },
{ "type": "Feature", "properties": { "name": "Thành phố Bạc Liêu", "ogc_fid": 12, "name_en": "Bac Lieu City", "level": "Thành phố trực thuộc tỉnh", "prov_name": "Tỉnh Bạc Liêu", "region": "Đồng bằng sông Cửu Long", "latitude": 9.2862483846920512, "longitude": 105.7237046769884, "code": "954", "prov_code": "95", "pop_2019": 156110 }, "geometry": { "type": "Point", "coordinates": [ 105.72370468, 9.28624838 ] } },
{ "type": "Feature", "properties": { "name": "Thành phố Hòa Bình", "ogc_fid": 13, "name_en": "Hoa Binh City", "level": "Thành phố trực thuộc tỉnh", "prov_name": "Tỉnh Hoà Bình", "region": "Trung du và Miền núi phía Bắc", "latitude": 20.828454434362751, "longitude": 105.34469507695539, "code": "148", "prov_code": "17", "pop_2019": 135718 }, "geometry": { "type": "Point", "coordinates": [ 105.34469508, 20.82845443 ] } },
{ "type": "Feature", "properties": { "name": "Thành phố Bắc Giang", "ogc_fid": 14, "name_en": "Bac Giang City", "level": "Thành phố trực thuộc tỉnh", "prov_name": "Tỉnh Bắc Giang", "region": "Trung du và Miền núi phía Bắc", "latitude": 21.262662048828602, "longitude": 106.20840214780199, "code": "213", "prov_code": "24", "pop_2019": 174229 }, "geometry": { "type": "Point", "coordinates": [ 106.20840215, 21.26266205 ] } },
{ "type": "Feature", "properties": { "name": "Thành phố Biên Hòa", "ogc_fid": 15, "name_en": "Bien Hoa City", "level": "Thành phố trực thuộc tỉnh", "prov_name": "Tỉnh Đồng Nai", "region": "Đông Nam Bộ", "latitude": 10.950989123196951, "longitude": 106.84029114120645, "code": "731", "prov_code": "75", "pop_2019": 1055414 }, "geometry": { "type": "Point", "coordinates": [ 106.84029114, 10.95098912 ] } },
{ "type": "Feature", "properties": { "name": "Thành phố Từ Sơn", "ogc_fid": 16, "name_en": "Tu Son City", "level": "Thành phố trực thuộc tỉnh", "prov_name": "Tỉnh Bắc Ninh", "region": "Đồng bằng sông Hồng", "latitude": 21.114245459050604, "longitude": 105.95755685777658, "code": "261", "prov_code": "27", "pop_2019": 176410 }, "geometry": { "type": "Point", "coordinates": [ 105.95755686, 21.11424546 ] } },
{ "type": "Feature", "properties": { "name": "Thành phố Quảng Ngãi", "ogc_fid": 17, "name_en": "Quang Ngai City", "level": "Thành phố trực thuộc tỉnh", "prov_name": "Tỉnh Quảng Ngãi", "region": "Bắc Trung Bộ và duyên hải miền Trung", "latitude": 15.122540679529623, "longitude": 108.80125521701477, "code": "522", "prov_code": "51", "pop_2019": 261417 }, "geometry": { "type": "Point", "coordinates": [ 108.80125522, 15.12254068 ] } },
{ "type": "Feature", "properties": { "name": "Thành phố Hà Giang", "ogc_fid": 18, "name_en": "Ha Giang City", "level": "Thành phố trực thuộc tỉnh", "prov_name": "Tỉnh Hà Giang", "region": "Trung du và Miền núi phía Bắc", "latitude": 22.830256710556998, "longitude": 104.98724886729813, "code": "024", "prov_code": "02", "pop_2019": 55559 }, "geometry": { "type": "Point", "coordinates": [ 104.98724887, 22.83025671 ] } },
{ "type": "Feature", "properties": { "name": "Thành phố Uông Bí", "ogc_fid": 19, "name_en": "Uong Bi City", "level": "Thành phố trực thuộc tỉnh", "prov_name": "Tỉnh Quảng Ninh", "region": "Đồng bằng sông Hồng", "latitude": 21.035378319575759, "longitude": 106.76432301838139, "code": "196", "prov_code": "22", "pop_2019": 120982 }, "geometry": { "type": "Point", "coordinates": [ 106.76432302, 21.03537832 ] } },
{ "type": "Feature", "properties": { "name": "Thành phố Hạ Long", "ogc_fid": 20, "name_en": "Ha Long City", "level": "Thành phố trực thuộc tỉnh", "prov_name": "Tỉnh Quảng Ninh", "region": "Đồng bằng sông Hồng", "latitude": 20.950170664599156, "longitude": 107.07329226474796, "code": "193", "prov_code": "22", "pop_2019": 300267 }, "geometry": { "type": "Point", "coordinates": [ 107.07329226, 20.95017066 ] } },
{ "type": "Feature", "properties": { "name": "Thành phố Móng Cái", "ogc_fid": 21, "name_en": "Mong Cai City", "level": "Thành phố trực thuộc tỉnh", "prov_name": "Tỉnh Quảng Ninh", "region": "Đồng bằng sông Hồng", "latitude": 21.525054292761666, "longitude": 107.96614162954654, "code": "194", "prov_code": "22", "pop_2019": 108553 }, "geometry": { "type": "Point", "coordinates": [ 107.96614163, 21.52505429 ] } },
{ "type": "Feature", "properties": { "name": "Thành phố Thái Bình", "ogc_fid": 22, "name_en": "Thai Binh City", "level": "Thành phố trực thuộc tỉnh", "prov_name": "Tỉnh Thái Bình", "region": "Đồng bằng sông Hồng", "latitude": 20.444825526322905, "longitude": 106.33185555890071, "code": "336", "prov_code": "34", "pop_2019": 206037 }, "geometry": { "type": "Point", "coordinates": [ 106.33185556, 20.44482553 ] } },
{ "type": "Feature", "properties": { "name": "Thành phố Lai Châu", "ogc_fid": 23, "name_en": "Lai Chau City", "level": "Thành phố trực thuộc tỉnh", "prov_name": "Tỉnh Lai Châu", "region": "Trung du và Miền núi phía Bắc", "latitude": 22.398936699349811, "longitude": 103.44004514905072, "code": "105", "prov_code": "12", "pop_2019": 42973 }, "geometry": { "type": "Point", "coordinates": [ 103.44004515, 22.3989367 ] } },
{ "type": "Feature", "properties": { "name": "Thành phố Tuyên Quang", "ogc_fid": 24, "name_en": "Tuyen Quang City", "level": "Thành phố trực thuộc tỉnh", "prov_name": "Tỉnh Tuyên Quang", "region": "Trung du và Miền núi phía Bắc", "latitude": 21.790689532607196, "longitude": 105.21593066907808, "code": "070", "prov_code": "08", "pop_2019": 191118 }, "geometry": { "type": "Point", "coordinates": [ 105.21593067, 21.79068953 ] } },
{ "type": "Feature", "properties": { "name": "Thành phố Lào Cai", "ogc_fid": 25, "name_en": "Lao Cai City", "level": "Thành phố trực thuộc tỉnh", "prov_name": "Tỉnh Lào Cai", "region": "Trung du và Miền núi phía Bắc", "latitude": 22.477348086421848, "longitude": 103.97276710837234, "code": "080", "prov_code": "10", "pop_2019": 130671 }, "geometry": { "type": "Point", "coordinates": [ 103.97276711, 22.47734809 ] } },
{ "type": "Feature", "properties": { "name": "Thành phố Điện Biên Phủ", "ogc_fid": 26, "name_en": "Dien Bien Phu City", "level": "Thành phố trực thuộc tỉnh", "prov_name": "Tỉnh Điện Biên", "region": "Trung du và Miền núi phía Bắc", "latitude": 21.405582485233108, "longitude": 103.02863826042862, "code": "094", "prov_code": "11", "pop_2019": 80366 }, "geometry": { "type": "Point", "coordinates": [ 103.02863826, 21.40558249 ] } },
{ "type": "Feature", "properties": { "name": "Thành phố Cam Ranh", "ogc_fid": 27, "name_en": "Cam Ranh City", "level": "Thành phố trực thuộc tỉnh", "prov_name": "Tỉnh Khánh Hòa", "region": "Bắc Trung Bộ và duyên hải miền Trung", "latitude": 11.927175277345496, "longitude": 109.16077638085234, "code": "569", "prov_code": "56", "pop_2019": 130814 }, "geometry": { "type": "Point", "coordinates": [ 109.16077638, 11.92717528 ] } },
{ "type": "Feature", "properties": { "name": "Thành phố Nam Định", "ogc_fid": 28, "name_en": "Nam Dinh City", "level": "Thành phố trực thuộc tỉnh", "prov_name": "Tỉnh Nam Định", "region": "Đồng bằng sông Hồng", "latitude": 20.427542266279271, "longitude": 106.17227781298304, "code": "356", "prov_code": "36", "pop_2019": 236294 }, "geometry": { "type": "Point", "coordinates": [ 106.17227781, 20.42754227 ] } },
{ "type": "Feature", "properties": { "name": "Thành phố Tân An", "ogc_fid": 29, "name_en": "Tan An City", "level": "Thành phố trực thuộc tỉnh", "prov_name": "Tỉnh Long An", "region": "Đồng bằng sông Cửu Long", "latitude": 10.538935205424742, "longitude": 106.40444368829604, "code": "794", "prov_code": "80", "pop_2019": 145120 }, "geometry": { "type": "Point", "coordinates": [ 106.40444369, 10.53893521 ] } },
{ "type": "Feature", "properties": { "name": "Thành phố Sầm Sơn", "ogc_fid": 30, "name_en": "Sam Son City", "level": "Thành phố trực thuộc tỉnh", "prov_name": "Tỉnh Thanh Hóa", "region": "Bắc Trung Bộ và duyên hải miền Trung", "latitude": 19.735782109810593, "longitude": 105.89970838047923, "code": "382", "prov_code": "38", "pop_2019": 109208 }, "geometry": { "type": "Point", "coordinates": [ 105.89970838, 19.73578211 ] } },
{ "type": "Feature", "properties": { "name": "Thành phố Sa Đéc", "ogc_fid": 31, "name_en": "Sa Dec City", "level": "Thành phố trực thuộc tỉnh", "prov_name": "Tỉnh Đồng Tháp", "region": "Đồng bằng sông Cửu Long", "latitude": 10.291067558665388, "longitude": 105.75619040593179, "code": "867", "prov_code": "87", "pop_2019": 106198 }, "geometry": { "type": "Point", "coordinates": [ 105.75619041, 10.29106756 ] } },
{ "type": "Feature", "properties": { "name": "Thành phố Ninh Bình", "ogc_fid": 32, "name_en": "Ninh Binh City", "level": "Thành phố trực thuộc tỉnh", "prov_name": "Tỉnh Ninh Bình", "region": "Đồng bằng sông Hồng", "latitude": 20.258052830985921, "longitude": 105.97959000019709, "code": "369", "prov_code": "37", "pop_2019": 128480 }, "geometry": { "type": "Point", "coordinates": [ 105.97959, 20.25805283 ] } },
{ "type": "Feature", "properties": { "name": "Thành phố Kon Tum", "ogc_fid": 33, "name_en": "Kon Tum City", "level": "Thành phố trực thuộc tỉnh", "prov_name": "Tỉnh Kon Tum", "region": "Tây Nguyên", "latitude": 14.345988853737946, "longitude": 108.0040556938481, "code": "608", "prov_code": "62", "pop_2019": 168264 }, "geometry": { "type": "Point", "coordinates": [ 108.00405569, 14.34598885 ] } },
{ "type": "Feature", "properties": { "name": "Thành phố Yên Bái", "ogc_fid": 34, "name_en": "Yen Bai City", "level": "Thành phố trực thuộc tỉnh", "prov_name": "Tỉnh Yên Bái", "region": "Trung du và Miền núi phía Bắc", "latitude": 21.709791890368315, "longitude": 104.88731494002779, "code": "132", "prov_code": "15", "pop_2019": 100631 }, "geometry": { "type": "Point", "coordinates": [ 104.88731494, 21.70979189 ] } },
{ "type": "Feature", "properties": { "name": "Thành phố Thái Nguyên", "ogc_fid": 35, "name_en": "Thai Nguyen City", "level": "Thành phố trực thuộc tỉnh", "prov_name": "Tỉnh Thái Nguyên", "region": "Trung du và Miền núi phía Bắc", "latitude": 21.594440046173403, "longitude": 105.841752309292, "code": "164", "prov_code": "19", "pop_2019": 340403 }, "geometry": { "type": "Point", "coordinates": [ 105.84175231, 21.59444005 ] } },
{ "type": "Feature", "properties": { "name": "Thành phố Phổ Yên", "ogc_fid": 36, "name_en": "Pho Yen City", "level": "Thành phố trực thuộc tỉnh", "prov_name": "Tỉnh Thái Nguyên", "region": "Trung du và Miền núi phía Bắc", "latitude": 21.415552151020226, "longitude": 105.87394247857036, "code": "172", "prov_code": "19", "pop_2019": 196378 }, "geometry": { "type": "Point", "coordinates": [ 105.87394248, 21.41555215 ] } },
{ "type": "Feature", "properties": { "name": "Thành phố Lạng Sơn", "ogc_fid": 37, "name_en": "Lang Son City", "level": "Thành phố trực thuộc tỉnh", "prov_name": "Tỉnh Lạng Sơn", "region": "Trung du và Miền núi phía Bắc", "latitude": 21.852937914718581, "longitude": 106.760998007442, "code": "178", "prov_code": "20", "pop_2019": 103284 }, "geometry": { "type": "Point", "coordinates": [ 106.76099801, 21.85293791 ] } },
{ "type": "Feature", "properties": { "name": "Thành phố Cẩm Phả", "ogc_fid": 38, "name_en": "Cam Pha City", "level": "Thành phố trực thuộc tỉnh", "prov_name": "Tỉnh Quảng Ninh", "region": "Đồng bằng sông Hồng", "latitude": 21.00997115903963, "longitude": 107.27290037860975, "code": "195", "prov_code": "22", "pop_2019": 190232 }, "geometry": { "type": "Point", "coordinates": [ 107.27290038, 21.00997116 ] } },
{ "type": "Feature", "properties": { "name": "Thành phố Việt Trì", "ogc_fid": 39, "name_en": "Viet Tri City", "level": "Thành phố trực thuộc tỉnh", "prov_name": "Tỉnh Phú Thọ", "region": "Trung du và Miền núi phía Bắc", "latitude": 21.306584977019646, "longitude": 105.40696757897439, "code": "227", "prov_code": "25", "pop_2019": 214777 }, "geometry": { "type": "Point", "coordinates": [ 105.40696758, 21.30658498 ] } },
{ "type": "Feature", "properties": { "name": "Thành phố Vĩnh Yên", "ogc_fid": 40, "name_en": "Vinh Yen City", "level": "Thành phố trực thuộc tỉnh", "prov_name": "Tỉnh Vĩnh Phúc", "region": "Đồng bằng sông Hồng", "latitude": 21.309501575982065, "longitude": 105.59110020748413, "code": "243", "prov_code": "26", "pop_2019": 119128 }, "geometry": { "type": "Point", "coordinates": [ 105.59110021, 21.30950158 ] } },
{ "type": "Feature", "properties": { "name": "Thành phố Phúc Yên", "ogc_fid": 41, "name_en": "Phuc Yen City", "level": "Thành phố trực thuộc tỉnh", "prov_name": "Tỉnh Vĩnh Phúc", "region": "Đồng bằng sông Hồng", "latitude": 21.236925570232049, "longitude": 105.70461591726689, "code": "244", "prov_code": "26", "pop_2019": 106002 }, "geometry": { "type": "Point", "coordinates": [ 105.70461592, 21.23692557 ] } },
{ "type": "Feature", "properties": { "name": "Thành phố Pleiku", "ogc_fid": 42, "name_en": "Pleiku City", "level": "Thành phố trực thuộc tỉnh", "prov_name": "Tỉnh Gia Lai", "region": "Tây Nguyên", "latitude": 13.977729058694795, "longitude": 107.99982776270593, "code": "622", "prov_code": "64", "pop_2019": 254802 }, "geometry": { "type": "Point", "coordinates": [ 107.99982776, 13.97772906 ] } },
{ "type": "Feature", "properties": { "name": "Thành phố Chí Linh", "ogc_fid": 43, "name_en": "Chi Linh City", "level": "Thành phố trực thuộc tỉnh", "prov_name": "Tỉnh Hải Dương", "region": "Đồng bằng sông Hồng", "latitude": 21.110745371245542, "longitude": 106.38822252742659, "code": "290", "prov_code": "30", "pop_2019": 220421 }, "geometry": { "type": "Point", "coordinates": [ 106.38822253, 21.11074537 ] } },
{ "type": "Feature", "properties": { "name": "Thành phố Thủ Dầu Một", "ogc_fid": 44, "name_en": "Thu Dau Mot City", "level": "Thành phố trực thuộc tỉnh", "prov_name": "Tỉnh Bình Dương", "region": "Đông Nam Bộ", "latitude": 10.980695037063924, "longitude": 106.65206571254042, "code": "718", "prov_code": "74", "pop_2019": 321607 }, "geometry": { "type": "Point", "coordinates": [ 106.65206571, 10.98069504 ] } },
{ "type": "Feature", "properties": { "name": "Thành phố Thuận An", "ogc_fid": 45, "name_en": "Thuan An City", "level": "Thành phố trực thuộc tỉnh", "prov_name": "Tỉnh Bình Dương", "region": "Đông Nam Bộ", "latitude": 10.905085937533732, "longitude": 106.69966051098881, "code": "725", "prov_code": "74", "pop_2019": 508433 }, "geometry": { "type": "Point", "coordinates": [ 106.69966051, 10.90508594 ] } },
{ "type": "Feature", "properties": { "name": "Thành phố Hải Dương", "ogc_fid": 46, "name_en": "Hai Duong City", "level": "Thành phố trực thuộc tỉnh", "prov_name": "Tỉnh Hải Dương", "region": "Đồng bằng sông Hồng", "latitude": 20.937807765158535, "longitude": 106.33576870209539, "code": "288", "prov_code": "30", "pop_2019": 241373 }, "geometry": { "type": "Point", "coordinates": [ 106.3357687, 20.93780777 ] } },
{ "type": "Feature", "properties": { "name": "Thành phố Phủ Lý", "ogc_fid": 47, "name_en": "Phu Ly City", "level": "Thành phố trực thuộc tỉnh", "prov_name": "Tỉnh Hà Nam", "region": "Đồng bằng sông Hồng", "latitude": 20.544656051948504, "longitude": 105.91559366459821, "code": "347", "prov_code": "35", "pop_2019": 158212 }, "geometry": { "type": "Point", "coordinates": [ 105.91559366, 20.54465605 ] } },
{ "type": "Feature", "properties": { "name": "Thành phố Vũng Tàu", "ogc_fid": 48, "name_en": "Vung Tau City", "level": "Thành phố trực thuộc tỉnh", "prov_name": "Tỉnh Bà Rịa - Vũng Tàu", "region": "Đông Nam Bộ", "latitude": 10.358490152422066, "longitude": 107.09424631798431, "code": "747", "prov_code": "77", "pop_2019": 357124 }, "geometry": { "type": "Point", "coordinates": [ 107.09424632, 10.35849015 ] } },
{ "type": "Feature", "properties": { "name": "Thành phố Bà Rịa", "ogc_fid": 49, "name_en": "Ba Ria City", "level": "Thành phố trực thuộc tỉnh", "prov_name": "Tỉnh Bà Rịa - Vũng Tàu", "region": "Đông Nam Bộ", "latitude": 10.499084493512942, "longitude": 107.16762032752423, "code": "748", "prov_code": "77", "pop_2019": 108701 }, "geometry": { "type": "Point", "coordinates": [ 107.16762033, 10.49908449 ] } },
{ "type": "Feature", "properties": { "name": "Thành phố Phú Quốc", "ogc_fid": 50, "name_en": "Phu Quoc City", "level": "Thành phố trực thuộc tỉnh", "prov_name": "Tỉnh Kiên Giang", "region": "Đồng bằng sông Cửu Long", "latitude": 10.216345672019415, "longitude": 103.95894557741504, "code": "911", "prov_code": "91", "pop_2019": 179480 }, "geometry": { "type": "Point", "coordinates": [ 103.95894558, 10.21634567 ] } },
{ "type": "Feature", "properties": { "name": "Thành phố Thanh Hóa", "ogc_fid": 51, "name_en": "Thanh Hoa City", "level": "Thành phố trực thuộc tỉnh", "prov_name": "Tỉnh Thanh Hóa", "region": "Bắc Trung Bộ và duyên hải miền Trung", "latitude": 19.810289611477273, "longitude": 105.80644532912459, "code": "380", "prov_code": "38", "pop_2019": 359910 }, "geometry": { "type": "Point", "coordinates": [ 105.80644533, 19.81028961 ] } },
{ "type": "Feature", "properties": { "name": "Thành phố Rạch Giá", "ogc_fid": 52, "name_en": "Rach Gia City", "level": "Thành phố trực thuộc tỉnh", "prov_name": "Tỉnh Kiên Giang", "region": "Đồng bằng sông Cửu Long", "latitude": 10.00911480741305, "longitude": 105.08311473066843, "code": "899", "prov_code": "91", "pop_2019": 227527 }, "geometry": { "type": "Point", "coordinates": [ 105.08311473, 10.00911481 ] } },
{ "type": "Feature", "properties": { "name": "Thành phố Hà Tiên", "ogc_fid": 53, "name_en": "Ha Tien City", "level": "Thành phố trực thuộc tỉnh", "prov_name": "Tỉnh Kiên Giang", "region": "Đồng bằng sông Cửu Long", "latitude": 10.385869774042526, "longitude": 104.48976843056246, "code": "900", "prov_code": "91", "pop_2019": 81576 }, "geometry": { "type": "Point", "coordinates": [ 104.48976843, 10.38586977 ] } },
{ "type": "Feature", "properties": { "name": "Thành phố Vinh", "ogc_fid": 54, "name_en": "Vinh City", "level": "Thành phố trực thuộc tỉnh", "prov_name": "Tỉnh Nghệ An", "region": "Bắc Trung Bộ và duyên hải miền Trung", "latitude": 18.6686529495841, "longitude": 105.68356457102446, "code": "412", "prov_code": "40", "pop_2019": 339114 }, "geometry": { "type": "Point", "coordinates": [ 105.68356457, 18.66865295 ] } },
{ "type": "Feature", "properties": { "name": "Thành phố Tây Ninh", "ogc_fid": 55, "name_en": "Tay Ninh City", "level": "Thành phố trực thuộc tỉnh", "prov_name": "Tỉnh Tây Ninh", "region": "Đông Nam Bộ", "latitude": 11.31886976951106, "longitude": 106.09899855919787, "code": "703", "prov_code": "72", "pop_2019": 133805 }, "geometry": { "type": "Point", "coordinates": [ 106.09899856, 11.31886977 ] } },
{ "type": "Feature", "properties": { "name": "Thành phố Thủ Đức", "ogc_fid": 56, "name_en": "Thu Duc City", "level": "Thành phố trực thuộc thành phố", "prov_name": "Thành phố Hồ Chí Minh", "region": "Đông Nam Bộ", "latitude": 10.775744975636224, "longitude": 106.75435667021212, "code": "769", "prov_code": "79", "pop_2019": 1013795 }, "geometry": { "type": "Point", "coordinates": [ 106.75435667, 10.77574498 ] } },
{ "type": "Feature", "properties": { "name": "Thành phố Hà Tĩnh", "ogc_fid": 57, "name_en": "Ha Tinh City", "level": "Thành phố trực thuộc tỉnh", "prov_name": "Tỉnh Hà Tĩnh", "region": "Bắc Trung Bộ và duyên hải miền Trung", "latitude": 18.339534346640583, "longitude": 105.9027125307643, "code": "436", "prov_code": "42", "pop_2019": 104037 }, "geometry": { "type": "Point", "coordinates": [ 105.90271253, 18.33953435 ] } },
{ "type": "Feature", "properties": { "name": "Thành phố Đồng Hới", "ogc_fid": 58, "name_en": "Dong Hoi City", "level": "Thành phố trực thuộc tỉnh", "prov_name": "Tỉnh Quảng Bình", "region": "Bắc Trung Bộ và duyên hải miền Trung", "latitude": 17.459939696398752, "longitude": 106.61219492176289, "code": "450", "prov_code": "44", "pop_2019": 133672 }, "geometry": { "type": "Point", "coordinates": [ 106.61219492, 17.4599397 ] } },
{ "type": "Feature", "properties": { "name": "Thành phố Đông Hà", "ogc_fid": 59, "name_en": "Dong Ha City", "level": "Thành phố trực thuộc tỉnh", "prov_name": "Tỉnh Quảng Trị", "region": "Bắc Trung Bộ và duyên hải miền Trung", "latitude": 16.822337805287823, "longitude": 107.10018395462707, "code": "461", "prov_code": "45", "pop_2019": 95658 }, "geometry": { "type": "Point", "coordinates": [ 107.10018395, 16.82233781 ] } },
{ "type": "Feature", "properties": { "name": "Thành phố Sóc Trăng", "ogc_fid": 60, "name_en": "Soc Trang City", "level": "Thành phố trực thuộc tỉnh", "prov_name": "Tỉnh Sóc Trăng", "region": "Đồng bằng sông Cửu Long", "latitude": 9.5963718281159114, "longitude": 105.96772446343574, "code": "941", "prov_code": "94", "pop_2019": 137305 }, "geometry": { "type": "Point", "coordinates": [ 105.96772446, 9.59637183 ] } },
{ "type": "Feature", "properties": { "name": "Thành phố Bến Tre", "ogc_fid": 61, "name_en": "Ben Tre City", "level": "Thành phố trực thuộc tỉnh", "prov_name": "Tỉnh Bến Tre", "region": "Đồng bằng sông Cửu Long", "latitude": 10.239305330569705, "longitude": 106.37637114378835, "code": "829", "prov_code": "83", "pop_2019": 124499 }, "geometry": { "type": "Point", "coordinates": [ 106.37637114, 10.23930533 ] } },
{ "type": "Feature", "properties": { "name": "Thành phố Huế", "ogc_fid": 62, "name_en": "Hue City", "level": "Thành phố trực thuộc tỉnh", "prov_name": "Tỉnh Thừa Thiên Huế", "region": "Bắc Trung Bộ và duyên hải miền Trung", "latitude": 16.462706376435676, "longitude": 107.60225196811098, "code": "474", "prov_code": "46", "pop_2019": 652572 }, "geometry": { "type": "Point", "coordinates": [ 107.60225197, 16.46270638 ] } },
{ "type": "Feature", "properties": { "name": "Thành phố Tam Kỳ", "ogc_fid": 63, "name_en": "Tam Ky City", "level": "Thành phố trực thuộc tỉnh", "prov_name": "Tỉnh Quảng Nam", "region": "Bắc Trung Bộ và duyên hải miền Trung", "latitude": 15.570387019827796, "longitude": 108.47297507688459, "code": "502", "prov_code": "49", "pop_2019": 122374 }, "geometry": { "type": "Point", "coordinates": [ 108.47297508, 15.57038702 ] } },
{ "type": "Feature", "properties": { "name": "Thành phố Hội An", "ogc_fid": 64, "name_en": "Hoi An City", "level": "Thành phố trực thuộc tỉnh", "prov_name": "Tỉnh Quảng Nam", "region": "Bắc Trung Bộ và duyên hải miền Trung", "latitude": 15.879190031066393, "longitude": 108.33252527205869, "code": "503", "prov_code": "49", "pop_2019": 98599 }, "geometry": { "type": "Point", "coordinates": [ 108.33252527, 15.87919003 ] } },
{ "type": "Feature", "properties": { "name": "Thành phố Nha Trang", "ogc_fid": 65, "name_en": "Nha Trang City", "level": "Thành phố trực thuộc tỉnh", "prov_name": "Tỉnh Khánh Hòa", "region": "Bắc Trung Bộ và duyên hải miền Trung", "latitude": 12.243671307360612, "longitude": 109.19261820448452, "code": "568", "prov_code": "56", "pop_2019": 422601 }, "geometry": { "type": "Point", "coordinates": [ 109.1926182, 12.24367131 ] } },
{ "type": "Feature", "properties": { "name": "Thành phố Phan Rang-Tháp Chàm", "ogc_fid": 66, "name_en": "Phan Rang-Thap Cham City", "level": "Thành phố trực thuộc tỉnh", "prov_name": "Tỉnh Ninh Thuận", "region": "Bắc Trung Bộ và duyên hải miền Trung", "latitude": 11.568024265472545, "longitude": 108.98950907991254, "code": "582", "prov_code": "58", "pop_2019": 167394 }, "geometry": { "type": "Point", "coordinates": [ 108.98950908, 11.56802427 ] } },
{ "type": "Feature", "properties": { "name": "Thành phố Phan Thiết", "ogc_fid": 67, "name_en": "Phan Thiet City", "level": "Thành phố trực thuộc tỉnh", "prov_name": "Tỉnh Bình Thuận", "region": "Bắc Trung Bộ và duyên hải miền Trung", "latitude": 10.92380495882678, "longitude": 108.09797826720221, "code": "593", "prov_code": "60", "pop_2019": 226736 }, "geometry": { "type": "Point", "coordinates": [ 108.09797827, 10.92380496 ] } },
{ "type": "Feature", "properties": { "name": "Thành phố Long Khánh", "ogc_fid": 68, "name_en": "Long Khanh City", "level": "Thành phố trực thuộc tỉnh", "prov_name": "Tỉnh Đồng Nai", "region": "Đông Nam Bộ", "latitude": 10.92683337651156, "longitude": 107.24751494691147, "code": "732", "prov_code": "75", "pop_2019": 171276 }, "geometry": { "type": "Point", "coordinates": [ 107.24751495, 10.92683338 ] } },
{ "type": "Feature", "properties": { "name": "Thành phố Mỹ Tho", "ogc_fid": 69, "name_en": "My Tho City", "level": "Thành phố trực thuộc tỉnh", "prov_name": "Tỉnh Tiền Giang", "region": "Đồng bằng sông Cửu Long", "latitude": 10.36276066793978, "longitude": 106.36487243467229, "code": "815", "prov_code": "82", "pop_2019": 228109 }, "geometry": { "type": "Point", "coordinates": [ 106.36487243, 10.36276067 ] } },
{ "type": "Feature", "properties": { "name": "Thành phố Hồng Ngự", "ogc_fid": 70, "name_en": "Hong Ngu City", "level": "Thành phố trực thuộc tỉnh", "prov_name": "Tỉnh Đồng Tháp", "region": "Đồng bằng sông Cửu Long", "latitude": 10.803396145990281, "longitude": 105.34570378186369, "code": "868", "prov_code": "87", "pop_2019": 100610 }, "geometry": { "type": "Point", "coordinates": [ 105.34570378, 10.80339615 ] } },
{ "type": "Feature", "properties": { "name": "Thành phố Vĩnh Long", "ogc_fid": 71, "name_en": "Vinh Long City", "level": "Thành phố trực thuộc tỉnh", "prov_name": "Tỉnh Vĩnh Long", "region": "Đồng bằng sông Cửu Long", "latitude": 10.253452293455922, "longitude": 105.97698005774532, "code": "855", "prov_code": "86", "pop_2019": 137870 }, "geometry": { "type": "Point", "coordinates": [ 105.97698006, 10.25345229 ] } },
{ "type": "Feature", "properties": { "name": "Thành phố Trà Vinh", "ogc_fid": 72, "name_en": "Tra Vinh City", "level": "Thành phố trực thuộc tỉnh", "prov_name": "Tỉnh Trà Vinh", "region": "Đồng bằng sông Cửu Long", "latitude": 9.9362828590337227, "longitude": 106.33970087007694, "code": "842", "prov_code": "84", "pop_2019": 112584 }, "geometry": { "type": "Point", "coordinates": [ 106.33970087, 9.93628286 ] } },
{ "type": "Feature", "properties": { "name": "Thành phố Gia Nghĩa", "ogc_fid": 73, "name_en": "Gia Nghia City", "level": "Thành phố trực thuộc tỉnh", "prov_name": "Tỉnh Đắk Nông", "region": "Tây Nguyên", "latitude": 11.996135430167248, "longitude": 107.67831795623705, "code": "660", "prov_code": "67", "pop_2019": 85082 }, "geometry": { "type": "Point", "coordinates": [ 107.67831796, 11.99613543 ] } },
{ "type": "Feature", "properties": { "name": "Thành phố Đà Lạt", "ogc_fid": 74, "name_en": "Da Lat City", "level": "Thành phố trực thuộc tỉnh", "prov_name": "Tỉnh Lâm Đồng", "region": "Tây Nguyên", "latitude": 11.952429997996948, "longitude": 108.44584048189691, "code": "672", "prov_code": "68", "pop_2019": 226578 }, "geometry": { "type": "Point", "coordinates": [ 108.44584048, 11.95243 ] } },
{ "type": "Feature", "properties": { "name": "Thành phố Bảo Lộc", "ogc_fid": 75, "name_en": "Bao Loc City", "level": "Thành phố trực thuộc tỉnh", "prov_name": "Tỉnh Lâm Đồng", "region": "Tây Nguyên", "latitude": 11.551087415459108, "longitude": 107.80879923812614, "code": "673", "prov_code": "68", "pop_2019": 158684 }, "geometry": { "type": "Point", "coordinates": [ 107.80879924, 11.55108742 ] } },
{ "type": "Feature", "properties": { "name": "Thành phố Đồng Xoài", "ogc_fid": 76, "name_en": "Dong Xoai City", "level": "Thành phố trực thuộc tỉnh", "prov_name": "Tỉnh Bình Phước", "region": "Đông Nam Bộ", "latitude": 11.551141463057414, "longitude": 106.90142420411522, "code": "689", "prov_code": "70", "pop_2019": 150052 }, "geometry": { "type": "Point", "coordinates": [ 106.9014242, 11.55114146 ] } },
{ "type": "Feature", "properties": { "name": "Thành phố Dĩ An", "ogc_fid": 77, "name_en": "Di An City", "level": "Thành phố trực thuộc tỉnh", "prov_name": "Tỉnh Bình Dương", "region": "Đông Nam Bộ", "latitude": 10.891628866392594, "longitude": 106.76290273521425, "code": "724", "prov_code": "74", "pop_2019": 474681 }, "geometry": { "type": "Point", "coordinates": [ 106.76290274, 10.89162887 ] } },
{ "type": "Feature", "properties": { "name": "Thành phố Cao Lãnh", "ogc_fid": 78, "name_en": "Cao Lanh City", "level": "Thành phố trực thuộc tỉnh", "prov_name": "Tỉnh Đồng Tháp", "region": "Đồng bằng sông Cửu Long", "latitude": 10.455931281840188, "longitude": 105.63290654442791, "code": "866", "prov_code": "87", "pop_2019": 164835 }, "geometry": { "type": "Point", "coordinates": [ 105.63290654, 10.45593128 ] } },
{ "type": "Feature", "properties": { "name": "Thành phố Long Xuyên", "ogc_fid": 79, "name_en": "Long Xuyen City", "level": "Thành phố trực thuộc tỉnh", "prov_name": "Tỉnh An Giang", "region": "Đồng bằng sông Cửu Long", "latitude": 10.383411055890862, "longitude": 105.42736470211092, "code": "883", "prov_code": "89", "pop_2019": 272365 }, "geometry": { "type": "Point", "coordinates": [ 105.4273647, 10.38341106 ] } },
{ "type": "Feature", "properties": { "name": "Thành phố Châu Đốc", "ogc_fid": 80, "name_en": "Chau Doc City", "level": "Thành phố trực thuộc tỉnh", "prov_name": "Tỉnh An Giang", "region": "Đồng bằng sông Cửu Long", "latitude": 10.709057600778962, "longitude": 105.12153059567488, "code": "884", "prov_code": "89", "pop_2019": 101765 }, "geometry": { "type": "Point", "coordinates": [ 105.1215306, 10.7090576 ] } },
{ "type": "Feature", "properties": { "name": "Thành phố Vị Thanh", "ogc_fid": 81, "name_en": "Vi Thanh City", "level": "Thành phố trực thuộc tỉnh", "prov_name": "Tỉnh Hậu Giang", "region": "Đồng bằng sông Cửu Long", "latitude": 9.7609291212217144, "longitude": 105.46879919439699, "code": "930", "prov_code": "93", "pop_2019": 73322 }, "geometry": { "type": "Point", "coordinates": [ 105.46879919, 9.76092912 ] } },
{ "type": "Feature", "properties": { "name": "Thành phố Ngã Bảy", "ogc_fid": 82, "name_en": "Nga Bay City", "level": "Thành phố trực thuộc tỉnh", "prov_name": "Tỉnh Hậu Giang", "region": "Đồng bằng sông Cửu Long", "latitude": 9.8269928857843016, "longitude": 105.8227715809478, "code": "931", "prov_code": "93", "pop_2019": 101192 }, "geometry": { "type": "Point", "coordinates": [ 105.82277158, 9.82699289 ] } },
{ "type": "Feature", "properties": { "name": "Thành phố Cà Mau", "ogc_fid": 83, "name_en": "Ca Mau City", "level": "Thành phố trực thuộc tỉnh", "prov_name": "Tỉnh Cà Mau", "region": "Đồng bằng sông Cửu Long", "latitude": 9.1815391957547732, "longitude": 105.14271337478669, "code": "964", "prov_code": "96", "pop_2019": 226372 }, "geometry": { "type": "Point", "coordinates": [ 105.14271337, 9.1815392 ] } },
{ "type": "Feature", "properties": { "name": "Thành phố Hải Phòng", "ogc_fid": 84, "name_en": "Hai Phong City", "level": "Thành phố trực thuộc Trung ương", "prov_name": "Thành phố Hải Phòng", "region": "Đồng bằng sông Hồng", "latitude": 20.86489757913219, "longitude": 106.68341618819318, "code": "31", "prov_code": "31", "pop_2019": 2033300 }, "geometry": { "type": "Point", "coordinates": [ 106.68341619, 20.86489758 ] } },
{ "type": "Feature", "properties": { "name": "Thành phố Hà Nội", "ogc_fid": 85, "name_en": "Ha Noi City", "level": "Thành phố trực thuộc Trung ương", "prov_name": "Thành phố Hà Nội", "region": "Đồng bằng sông Hồng", "latitude": 21.028346400841912, "longitude": 105.85434240191843, "code": "01", "prov_code": "01", "pop_2019": 8093891 }, "geometry": { "type": "Point", "coordinates": [ 105.8543424, 21.0283464 ] } },
{ "type": "Feature", "properties": { "name": "Thành phố Hồ Chí Minh", "ogc_fid": 86, "name_en": "Ho Chi Minh City", "level": "Thành phố trực thuộc Trung ương", "prov_name": "Thành phố Hồ Chí Minh", "region": "Đông Nam Bộ", "latitude": 10.776603874242966, "longitude": 106.70097702716606, "code": "79", "prov_code": "79", "pop_2019": 9038566 }, "geometry": { "type": "Point", "coordinates": [ 106.70097703, 10.77660387 ] } },
{ "type": "Feature", "properties": { "name": "Thành phố Cần Thơ", "ogc_fid": 87, "name_en": "Can Tho City", "level": "Thành phố trực thuộc Trung ương", "prov_name": "Thành phố Cần Thơ", "region": "Đồng bằng sông Cửu Long", "latitude": 10.037133232007086, "longitude": 105.78823171522487, "code": "92", "prov_code": "92", "pop_2019": 1235954 }, "geometry": { "type": "Point", "coordinates": [ 105.78823172, 10.03713323 ] } },
{ "type": "Feature", "properties": { "name": "Thành phố Đà Nẵng", "ogc_fid": 88, "name_en": "Da Nang City", "level": "Thành phố trực thuộc Trung ương", "prov_name": "Thành phố Đà Nẵng", "region": "Bắc Trung Bộ và duyên hải miền Trung", "latitude": 16.077079847872959, "longitude": 108.22301778109701, "code": "48", "prov_code": "48", "pop_2019": 1141125 }, "geometry": { "type": "Point", "coordinates": [ 108.22301778, 16.07707985 ] } }
]
}
